City_ID,City,Lat,Lng,Max Temp,Humidity,Cloudiness,Wind Speed,Country,Date
0,Ljusdal,61.8288,16.0913,274.82,96,75,0.83,SE,1731218553
1,Muroto-misakicho,33.2833,134.15,293.15,71,100,2.86,JP,1731218555
2,Port elizabeth,-33.918,25.5701,292.21,80,20,1.54,ZA,1731218080
3,Saipan,15.1355,145.701,301.84,83,51,6.26,MP,1731218560
4,Hawaiian paradise park,19.5933,-154.9731,295.78,91,26,0.45,US,1731218562
5,Longyearbyen,78.2186,15.6401,270.06,63,75,3.6,SJ,1731218564
6,Mabaruma,8.2,-59.7833,296.0,100,31,0.22,GY,1731218568
7,Fort bragg,35.139,-79.006,283.06,84,0,1.54,US,1731218571
8,Borba,-4.3878,-59.5939,300.43,59,100,1.28,BR,1731218573
9,Port mathurin,-19.6833,63.4167,297.8,84,45,8.09,MU,1731218575
10,Grytviken,-54.2811,-36.5092,271.63,69,7,3.76,GS,1731218577
11,Lazaro cardenas,17.9583,-102.2,298.24,88,17,1.76,MX,1731218423
12,Adamstown,-25.066,-130.1015,296.36,88,100,9.86,PN,1731218582
13,Puerto natales,-51.7236,-72.4875,275.96,86,88,3.09,CL,1731218584
14,Minas de marcona,-15.2119,-75.1103,286.7,80,83,4.12,PE,1731218586
15,Port alfred,-33.5906,26.891,292.69,76,60,0.89,ZA,1731218588
16,Monforte de lemos,42.5216,-7.5142,289.58,99,100,0.92,ES,1731218350
17,Polyarnyy,69.1989,33.4478,274.91,89,80,7.51,RU,1731218593
18,Umm kaddadah,13.6017,26.6876,297.32,20,28,8.14,SD,1731218595
19,Peace river,56.2501,-117.286,269.32,86,0,1.54,CA,1731218597
20,Gandarbal,34.2333,74.7833,292.71,27,23,2.56,IN,1731218599
21,Albany,42.6001,-73.9662,273.4,75,19,0.79,US,1731218409
22,Bredasdorp,-34.5322,20.0403,290.99,65,84,7.08,ZA,1731218604
23,Bandarbeyla,9.4942,50.8122,300.89,70,69,8.06,SO,1731218606
24,Iskateley,67.6803,53.1512,267.93,84,94,4.23,RU,1731218589
25,Ushuaia,-54.8,-68.3,275.96,93,0,2.06,AR,1731218590
26,Brookings,44.3114,-96.7984,280.44,100,100,3.09,US,1731218612
27,Olonkinbyen,70.9221,-8.7187,274.24,100,100,5.91,SJ,1731218615
28,Mount gambier,-37.8333,140.7667,290.16,52,63,4.67,AU,1731218334
29,Whitehorse,60.7161,-135.0538,271.58,80,20,6.17,CA,1731218619
30,Port-aux-francais,-49.35,70.2167,277.89,79,37,13.23,TF,1731218528
31,Enterprise,36.0252,-115.2419,284.44,29,0,1.54,US,1731218623
32,Thinadhoo,0.5333,72.9333,301.24,71,34,4.84,MV,1731218625
33,Bethel,41.3712,-73.414,276.73,67,46,0.72,US,1731218628
34,New norfolk,-42.7826,147.0587,288.55,26,2,0.44,AU,1731218630
35,Ust-tsilma,65.441,52.1498,269.31,95,72,3.13,RU,1731218632
36,Ribeira grande,38.5167,-28.7,293.58,97,97,4.02,PT,1731218634
37,Shingu,33.7333,135.9833,292.49,78,100,3.25,JP,1731218636
38,Port lincoln,-34.7333,135.8667,291.62,60,70,3.63,AU,1731218638
39,Ancud,-41.8697,-73.8203,282.5,86,100,3.98,CL,1731218641
40,Avarua,-21.2078,-159.775,295.18,68,40,3.09,CK,1731218643
41,Geraldton,-28.7667,114.6,298.38,47,0,9.77,AU,1731218645
42,Kruisfontein,-34.0033,24.7314,290.02,64,96,4.37,ZA,1731218647
43,Waitangi,-43.9535,-176.5597,285.83,88,4,2.24,NZ,1731218649
44,Qaqortoq,60.7167,-46.0333,272.1,95,99,3.47,GL,1731218654
45,San patricio,28.017,-97.5169,294.12,63,0,2.9,US,1731218656
46,Carnarvon,-24.8667,113.6333,297.9,57,64,9.21,AU,1731218658
47,Xilin hot,43.9667,116.0333,279.44,29,0,1.31,CN,1731218661
48,Queenstown,-31.8976,26.8753,289.76,76,97,0.72,ZA,1731218663
49,Lakatoro,-16.0999,167.4164,299.46,74,38,6.51,VU,1731218665
50,Aasiaat,68.7098,-52.8699,268.26,88,100,2.95,GL,1731218519
51,Stanley,54.868,-1.6985,279.42,92,75,0.51,GB,1731218669
52,Muang xay,20.7,101.9833,303.7,40,4,1.27,LA,1731218671
53,La passe,45.5549,-0.8967,286.38,92,14,0.6,FR,1731218674
54,Xapuri,-10.6517,-68.5044,295.32,98,100,1.17,BR,1731218676
55,Mejit,10.2753,170.8646,301.69,76,48,9.35,MH,1731218678
56,Katsuura,35.1333,140.3,290.38,84,100,1.61,JP,1731218680
57,Margate,51.3813,1.3862,280.2,79,36,0.45,GB,1731218682
58,Vorgashor,67.5833,63.95,261.3,89,99,7.33,RU,1731218685
59,The pas,53.8251,-101.2541,278.16,65,100,1.54,CA,1731218687
60,Leava,-14.3,-178.1667,300.64,82,100,7.18,WF,1731218689
61,Mangai,-4.05,19.5333,293.69,98,100,0.24,CD,1731218691
62,Pacific grove,36.6177,-121.9166,285.05,80,89,0.89,US,1731218693
63,Isafjordur,66.0755,-23.124,278.3,95,100,4.61,IS,1731218696
64,Nadi,-17.8,177.4167,301.15,65,20,4.63,FJ,1731218698
65,Khowai,24.1,91.6333,301.96,56,0,1.78,IN,1731218700
66,Douentza,14.9951,-2.9517,294.38,17,23,1.17,ML,1731218702
67,Compostela,7.6731,126.0889,303.51,76,100,0.65,PH,1731218704
68,Angaur state,6.906,134.13,302.43,74,21,3.86,PW,1731218706
69,Codrington,-38.2667,141.9667,289.0,58,38,5.84,AU,1731218708
70,Edinburgh of the seven seas,-37.0676,-12.3116,288.48,90,97,6.31,SH,1731218711
71,Ust'-kalmanka,52.1207,83.305,274.15,70,100,12.9,RU,1731218713
72,Huescar,37.811,-2.5412,281.78,86,21,1.06,ES,1731218715
73,Riohacha,11.5444,-72.9072,297.29,94,82,1.82,CO,1731218717
74,Karamay,45.6004,84.8661,278.5,61,78,2.59,CN,1731218720
75,Sicklerville,39.7173,-74.9693,277.9,30,42,1.0,US,1731218722
76,Ust-nera,64.5667,143.2,251.54,99,100,1.47,RU,1731218724
77,Makueni boma,-1.8041,37.6203,295.2,70,48,1.74,KE,1731218727
78,Laascaanood,8.4774,47.3597,298.53,46,1,4.57,SO,1731218729
79,Bel ombre,-4.6167,55.4167,304.06,62,20,3.6,SC,1731218731
80,Praia da vitoria,38.7333,-27.0667,293.29,94,40,3.06,PT,1731218733
81,Nikolayevsk-on-amure,53.1406,140.73,271.32,97,100,0.95,RU,1731218736
82,Lokoja,7.8024,6.743,297.29,73,91,1.34,NG,1731218738
83,Klyuchi,52.2667,79.1667,272.09,92,100,10.84,RU,1731218740
84,Crane,31.3974,-102.3501,286.01,64,0,3.19,US,1731218742
85,San luis de la loma,17.2706,-100.8939,299.17,86,61,1.39,MX,1731218745
86,Garissa,-0.4536,39.6401,302.35,59,69,5.73,KE,1731218747
87,Kenai,60.5544,-151.2583,275.45,75,0,8.75,US,1731218749
88,West island,-12.1568,96.8225,299.14,84,100,8.5,CC,1731218751
89,Puerto ayora,-0.7393,-90.3518,294.57,88,60,3.13,EC,1731218753
90,Santyoku,37.4406,129.1708,291.49,64,100,0.86,KR,1731218756
91,Opuwo,-18.0607,13.84,294.55,34,90,1.11,NA,1731218758
92,Corinto,37.9407,22.9573,287.53,67,17,2.3,GR,1731218524
93,Strezhevoy,60.7333,77.5889,269.36,92,100,4.08,RU,1731218750
94,Blackmans bay,-43.0167,147.3167,287.33,58,13,5.17,AU,1731218764
95,Abepura,-2.6333,140.5833,304.6,66,20,5.14,ID,1731218766
96,Cide,41.8921,33.0044,284.39,57,35,1.97,TR,1731218769
97,St. john's,47.5649,-52.7093,276.92,85,100,11.83,CA,1731218771
98,Udachny,66.4167,112.4,252.32,96,63,2.06,RU,1731218773
99,Zhanibek,49.4167,46.85,276.69,82,37,4.8,KZ,1731218775
100,Orchha,25.35,78.65,303.26,33,0,2.31,IN,1731218777
101,Garca,-22.2106,-49.6561,290.39,85,27,3.99,BR,1731218760
102,Pathein,16.7833,94.7333,301.29,75,35,4.14,MM,1731218782
103,Puerto aysen,-45.4,-72.7,278.8,99,96,2.54,CL,1731218784
104,Papatowai,-46.5619,169.4708,287.88,62,69,4.11,NZ,1731218786
105,Nemuro,43.3236,145.575,282.27,68,1,5.04,JP,1731218789
106,Rovaniemi,66.5,25.7167,268.82,93,0,2.57,FI,1731218791
107,Uturoa,-16.7333,-151.4333,300.3,80,41,5.47,PF,1731218793
108,Ca mau,9.1769,105.15,302.31,80,100,4.44,VN,1731218796
109,Kingston,17.997,-76.7936,298.68,94,20,2.06,JM,1731218798
110,Fuling,29.7022,107.3919,295.43,57,75,1.26,CN,1731218800
111,Iqaluit,63.7506,-68.5145,267.98,79,100,8.05,CA,1731218803
112,Kasangulu,-4.5911,15.1708,293.81,98,100,0.86,CD,1731218805
113,Wailua homesteads,22.0669,-159.378,296.59,95,75,7.72,US,1731218809
114,Richards bay,-28.783,32.0377,294.56,86,100,2.53,ZA,1731218619
115,Fisterra,42.9049,-9.2629,289.87,97,100,4.25,ES,1731218814
116,Tiksi,71.6872,128.8694,257.92,95,100,2.41,RU,1731218816
117,Sao vicente,-23.9631,-46.3919,292.58,26,88,1.92,BR,1731218582
118,Jamestown,42.097,-79.2353,279.95,60,0,4.63,US,1731218823
119,Trairi,-3.2778,-39.2689,298.51,82,32,5.11,BR,1731218803
120,Yellowknife,62.456,-114.3525,260.6,93,97,4.92,CA,1731218827
121,Fort-shevchenko,44.5086,50.263,284.68,91,98,1.41,KZ,1731218829
122,Lompoc,34.6391,-120.4579,281.38,93,0,2.57,US,1731218831
123,Bilibino,68.0546,166.4372,249.3,100,94,0.93,RU,1731218833
124,Tekkali,18.6167,84.2333,303.46,46,1,3.92,IN,1731218836
125,Thompson,55.7435,-97.8558,268.24,86,20,0.0,CA,1731218521
126,Nar'yan-mar,67.6713,53.087,268.09,85,89,4.27,RU,1731218840
127,Kerch,45.3583,36.4758,282.17,80,4,8.27,UA,1731218788
128,Tari,-11.1105,14.3559,291.85,96,100,0.88,AO,1731218844
129,Waycross,31.2136,-82.354,293.09,94,99,0.89,US,1731218847
130,Road town,18.4167,-64.6167,300.1,79,100,5.69,VG,1731218849
131,Tottori,35.5,134.2333,291.91,62,100,0.62,JP,1731218851
132,Berezovo,63.9381,65.0419,264.22,84,64,6.93,RU,1731218853
133,Kirensk,57.7853,108.1119,268.21,80,98,3.63,RU,1731218855
134,Anadyr,64.75,177.4833,268.43,92,75,2.0,RU,1731218857
135,Rundu,-17.9333,19.7667,296.0,67,99,1.16,NA,1731218860
136,Trinity beach,-16.7888,145.6968,304.09,55,43,6.69,AU,1731218862
137,Lebu,-37.6167,-73.65,283.42,86,100,0.85,CL,1731218701
138,College,64.8569,-147.8028,258.75,85,20,2.57,US,1731218866
139,Nevel'sk,46.6733,141.8633,283.04,89,82,10.69,RU,1731218868
140,Bikenibeu village,1.3673,173.1241,302.13,74,75,2.57,KI,1731218870
141,Galesong,-5.3166,119.3661,303.83,65,78,4.3,ID,1731218873
142,Margaret river,-33.95,115.0667,291.38,50,0,7.09,AU,1731218877
143,Porbandar,21.6422,69.6093,304.88,37,1,1.06,IN,1731218879
144,Happy valley-goose bay,53.3168,-60.3315,268.7,68,8,2.22,CA,1731218881
145,Augusto correa,-1.0217,-46.635,297.75,88,18,1.28,BR,1731218829
146,Whakatane,-37.9585,176.9854,290.88,85,78,2.44,NZ,1731218886
147,Rio grande,-32.035,-52.0986,289.38,75,0,4.38,BR,1731218642
148,Greymouth,-42.4667,171.2,286.27,69,99,2.82,NZ,1731218890
149,Badagry,6.4167,2.8833,298.1,86,76,1.05,NG,1731218892
150,Lamar,33.6668,-95.5836,287.1,87,75,1.54,US,1731218895
151,Pisco,-13.7,-76.2167,289.83,82,0,1.03,PE,1731218897
152,Ilulissat,69.2167,-51.1,269.16,80,100,4.12,GL,1731218899
153,Invercargill,-46.4,168.35,289.83,59,94,0.89,NZ,1731218904
154,Itoman,26.1247,127.6694,302.16,84,20,4.63,JP,1731218906
155,La punta,-33.1837,-66.3127,294.97,59,0,5.88,AR,1731218908
156,Vorkuta,67.5,64.0,261.38,89,100,7.39,RU,1731218910
157,Flying fish cove,-10.4217,105.6791,299.97,89,100,5.66,CX,1731218912
158,Kodiak,57.79,-152.4072,278.88,87,100,15.43,US,1731218891
159,Laguna,38.421,-121.4238,284.29,66,0,0.0,US,1731218917
160,Nova vicosa,-17.8919,-39.3719,296.4,98,100,2.53,BR,1731218919
161,Vila franca do campo,37.7167,-25.4333,292.38,99,99,2.28,PT,1731218921
162,Yeppoon,-23.1333,150.7333,298.77,71,7,5.93,AU,1731218923
163,Lerwick,60.1545,-1.1494,283.1,83,100,8.55,GB,1731218925
164,Azul,-36.777,-59.8585,289.53,63,72,3.43,AR,1731218928
165,Saint-pierre,-21.3393,55.4781,300.97,61,0,1.54,RE,1731218930
166,Slave lake,55.2834,-114.769,272.64,64,63,1.4,CA,1731218870
167,Fale old settlement,-9.3852,-171.2468,301.78,72,35,6.59,TK,1731218934
168,Smithers,54.7804,-127.1743,269.33,100,100,0.0,CA,1731218937
169,San antonio de pale,-1.4014,5.6325,298.94,82,100,3.88,GQ,1731218941
170,Tommot,58.9564,126.2925,264.89,92,100,2.7,RU,1731218944
171,Remire-montjoly,4.9167,-52.2667,298.17,94,75,2.06,GF,1731218946
172,Olinda,-8.0089,-34.8553,299.0,78,40,3.6,BR,1731218861
173,Kendari,-3.945,122.4989,304.75,57,64,2.63,ID,1731218950
174,San carlos de bariloche,-41.1456,-71.3082,277.73,87,59,2.55,AR,1731218956
175,Chonchi,-42.6128,-73.8092,280.44,92,100,0.93,CL,1731218958
176,Palikir - national government center,6.9248,158.1611,302.05,71,11,6.42,FM,1731218960
177,Anloga,5.7947,0.8973,300.0,79,70,2.15,GH,1731218965
178,Zhangjiakou,40.81,114.8794,286.1,39,14,1.41,CN,1731218967
179,Hamilton,39.1834,-84.5333,287.27,65,100,3.6,US,1731218788
180,Puerto francisco de orellana,-0.4667,-76.9667,295.41,99,100,0.51,EC,1731218971
181,Nishinoomote,30.7333,131.0,297.37,77,100,8.37,JP,1731218974
182,Ta`u,-14.2336,-169.5144,299.78,85,82,9.05,AS,1731218976
183,El nido,11.1858,119.3956,304.34,79,46,3.66,PH,1731218978
184,Puerto lempira,15.2667,-83.7667,298.49,86,7,2.23,HN,1731218981
185,Atafu village,-8.5421,-172.5159,301.3,76,81,5.33,TK,1731218983
186,Ciudad de nanacamilpa,19.4833,-98.55,282.18,72,63,1.22,MX,1731218985
187,Saudarkrokur,65.7461,-19.6394,280.83,81,100,4.41,IS,1731218987
188,Kaedi,16.1465,-13.5047,298.26,17,1,4.93,MR,1731218989
189,Lihue,21.9789,-159.3672,296.92,97,75,7.72,US,1731218992
190,Al khums,32.6486,14.2619,292.32,76,10,2.67,LY,1731218994
191,Monrovia,6.3005,-10.7969,298.46,82,61,0.31,LR,1731218996
192,Nyurba,63.2842,118.3319,265.15,88,100,3.81,RU,1731218998
193,Sampit,-2.5333,112.95,304.37,71,87,1.57,ID,1731219003
194,Papao,-17.75,-149.55,298.97,89,77,8.24,PF,1731219005
195,Buinsk,54.95,48.2833,276.55,81,87,7.13,RU,1731219008
196,Labuan,5.2767,115.2417,303.35,79,20,0.0,MY,1731218752
197,Puerto baquerizo moreno,-0.9,-89.6,293.35,79,68,4.23,EC,1731219012
198,Ketchikan,55.3422,-131.6461,280.14,75,40,3.6,US,1731219014
199,Princeville,45.7668,-61.2985,276.21,79,75,5.66,CA,1731219016
200,Hammerfest,70.6634,23.6821,278.4,93,100,8.75,NO,1731219019
201,Baloda bazar,21.6667,82.1667,302.2,43,0,0.94,IN,1731219021
202,Holualoa,19.6228,-155.9522,295.28,91,25,0.59,US,1731219023
203,Chernyshevsk,52.5243,117.0174,269.14,68,0,2.45,RU,1731219025
204,Daru,-9.0763,143.2092,301.27,72,99,5.12,PG,1731219027
205,Castillos,-34.1667,-53.8333,284.27,94,1,2.13,UY,1731219030
206,Concepcion del oro,24.6333,-101.4167,287.89,60,38,1.8,MX,1731219032
207,Acarau,-2.8856,-40.12,298.48,83,15,6.89,BR,1731219034
208,Vadso,70.0744,29.7487,275.24,93,75,4.63,NO,1731219036
209,Argo,37.6333,22.7333,283.91,70,22,2.23,GR,1731219038
210,Galvez,-32.0293,-61.221,290.88,53,0,6.66,AR,1731219019
211,Bodo,67.28,14.405,278.17,65,75,7.72,NO,1731219043
212,Vilyuchinsk,52.9306,158.4028,270.33,71,100,3.73,RU,1731219045
213,Al jawf,29.5,38.75,294.57,54,29,3.37,SA,1731219047
214,Vallegrande,-18.4897,-64.1069,286.72,91,10,1.42,BO,1731219052
215,Dryden,49.7833,-92.7503,279.51,76,100,2.74,CA,1731219054
216,Cabo san lucas,22.8909,-109.9124,295.79,67,0,3.04,MX,1731219056
217,Dondo,-19.6094,34.7431,299.88,58,53,2.17,MZ,1731219014
218,Hermanus,-34.4187,19.2345,290.82,74,87,6.35,ZA,1731219060
219,Bambui,-20.0064,-45.9769,292.27,95,55,1.9,BR,1731219063
220,Cestos city,5.46,-9.5828,298.38,86,51,1.68,LR,1731219065
221,Fortuna,40.5982,-124.1573,284.22,91,100,0.0,US,1731219067
222,Hithadhoo,-0.6,73.0833,301.5,73,89,5.46,MV,1731219069
223,Onega,63.9061,38.1404,274.6,89,100,4.83,RU,1731219071
224,Usinsk,65.9939,57.5281,263.2,91,35,5.57,RU,1731219074
225,Kuanda,56.3161,116.0806,263.91,85,92,0.61,RU,1731219077
226,Borkum,53.5809,6.6915,281.67,89,100,4.44,DE,1731219079
227,Afaahiti,-17.75,-149.2833,297.97,88,66,7.32,PF,1731219081
228,El granada,37.5027,-122.4694,287.07,67,75,3.09,US,1731219083
229,Latrobe,40.3212,-79.3795,285.28,32,0,0.0,US,1731219016
230,Enewetak,11.3474,162.3373,301.49,80,95,6.91,MH,1731219088
231,Aginskoye,51.1,114.53,273.39,37,8,4.46,RU,1731219090
232,Alofi,-19.0595,-169.9187,298.09,73,40,7.72,NU,1731219092
233,Akureyri,65.6835,-18.0878,278.11,87,75,3.6,IS,1731219094
234,Kristiansund,63.1115,7.732,281.0,87,100,2.06,NO,1731218955
235,San jose del guaviare,2.5729,-72.6459,295.89,99,100,0.83,CO,1731219099
236,Khandyga,62.6667,135.6,258.58,98,99,0.52,RU,1731219101
237,Tazovsky,67.4667,78.7,266.3,94,100,7.78,RU,1731219103
238,Praia,14.9215,-23.5087,297.9,82,64,5.42,CV,1731218887
239,Caetite,-14.0694,-42.475,291.92,92,84,0.89,BR,1731218934
240,Leninskoye,41.7589,69.3864,282.76,51,0,2.58,KZ,1731219110
241,Selkirk,50.1436,-96.8845,278.25,89,100,0.89,CA,1731219112
242,Champerico,14.3,-91.9167,299.39,85,46,1.44,GT,1731219115
243,Talnakh,69.4865,88.3972,251.71,95,32,2.38,RU,1731219117
244,Ouadda,8.0777,22.4007,296.78,63,100,0.62,CF,1731219119
245,Adis zemen,12.1167,37.7833,292.53,47,4,1.68,ET,1731219121
246,Lodeynoye pole,60.726,33.5531,272.15,92,70,1.48,RU,1731219123
247,Doka,13.5167,35.7667,302.42,38,3,2.34,SD,1731219126
248,Oistins,13.0667,-59.5333,302.2,79,75,8.23,BB,1731219128
249,Lorengau,-2.0226,147.2712,302.13,75,43,0.6,PG,1731219130
250,Santiago de cao,-7.9589,-79.2392,290.22,94,100,4.12,PE,1731219132
251,Isiro,2.7739,27.616,293.32,97,100,1.23,CD,1731219134
252,Kapuskasing,49.4169,-82.4331,277.2,75,75,4.12,CA,1731219136
253,East london,-33.0153,27.9116,292.67,59,20,1.03,ZA,1731219139
254,Staroyur'yevo,53.3161,40.7081,278.46,72,100,4.01,RU,1731219141
255,Guiuan,11.0333,125.7247,302.05,74,95,4.37,PH,1731219143
256,Portland,45.5234,-122.6762,283.67,90,0,0.45,US,1731219145
257,Manzini,-26.25,31.5,295.42,80,100,1.29,SZ,1731219147
258,Kavieng,-2.5744,150.7967,301.43,74,100,2.95,PG,1731219149
259,Punta arenas,-53.15,-70.9167,278.21,81,40,5.66,CL,1731219145
260,Pali,25.7667,73.3333,305.34,20,0,2.5,IN,1731219154
261,Sukhodol,53.9006,51.2117,276.26,80,83,6.1,RU,1731219156
262,Tamandare,-8.7597,-35.1047,297.86,80,23,4.97,BR,1731219158
263,Constantia,44.1833,28.65,279.65,84,57,1.98,RO,1731218945
264,Mujiayingzi,42.1167,118.7833,284.92,22,21,2.95,CN,1731219162
265,Kapa'a,22.0752,-159.319,297.33,95,75,7.72,US,1731219165
266,Richfield,44.8833,-93.283,282.29,95,100,4.12,US,1731219167
267,Benguela,-12.5763,13.4055,297.42,83,99,1.14,AO,1731219169
268,Mitsamiouli,-11.3847,43.2844,300.12,73,3,2.33,KM,1731219171
269,Gadzhiyevo,69.2551,33.3362,274.57,89,80,7.05,RU,1731219173
270,Hasaki,35.7333,140.8333,292.31,76,95,1.5,JP,1731219175
271,Tra vinh,9.9347,106.3453,303.65,69,69,3.21,VN,1731219178
272,Gostyn,51.8825,17.0123,272.05,96,27,2.24,PL,1731219180
273,Cambria,35.5641,-121.0808,286.99,47,67,1.3,US,1731219182
274,Brisas de zicatela,15.8369,-97.0419,299.04,85,84,2.1,MX,1731219184
275,Belyy yar,53.6039,91.3903,272.09,69,0,4.0,RU,1731219186
276,Mulayjah,27.271,48.4242,300.17,25,13,3.44,SA,1731219188
277,Jamaame,0.0697,42.745,303.48,60,49,3.54,SO,1731219191
278,Coquimbo,-29.9533,-71.3436,287.0,85,0,2.57,CL,1731219064
279,Tanumah,27.1,44.1333,296.46,34,58,6.93,SA,1731219195
280,Rimouski,48.4488,-68.524,273.44,63,18,4.88,CA,1731218976
281,Mashava,-20.0367,30.4823,300.39,38,76,4.11,ZW,1731219199
282,Ugoofaaru,5.6667,73.0,301.1,71,25,1.12,MV,1731219202
283,Nuuk,64.1835,-51.7216,271.49,80,100,1.54,GL,1731219204
284,George town,5.4112,100.3354,305.11,66,20,4.63,MY,1731218951
285,Barcelos,41.5388,-8.6151,286.9,92,99,1.31,PT,1731219208
286,Nguigmi,14.2495,13.1092,294.23,28,97,4.11,NE,1731219210
287,Aioun,16.6614,-9.6149,295.6,17,0,4.58,MR,1731219213
288,Sinabang,2.4803,96.3801,301.28,77,100,0.3,ID,1731219215
289,Qusmuryn,52.4503,64.6311,274.6,91,99,7.35,KZ,1731219217
290,Lycksele,64.5954,18.6735,265.08,100,75,0.0,SE,1731219219
291,Visby,57.6409,18.296,279.27,93,100,3.09,SE,1731219221
292,Felipe carrillo puerto,19.5833,-88.05,296.57,99,97,0.6,MX,1731219223
293,Tura,25.5198,90.2201,300.98,56,0,1.66,IN,1731219226
294,Utrik,11.2278,169.8474,301.4,79,17,9.83,MH,1731219228
295,Dharmadam,11.7833,75.4333,305.07,45,71,0.22,IN,1731219230
296,Aurora,39.7294,-104.8319,275.9,90,37,2.24,US,1731219077
297,Natal,-5.795,-35.2094,297.51,83,20,2.57,BR,1731219127
298,Fort mcmurray,56.7268,-111.381,271.92,80,100,2.57,CA,1731219236
299,Saki,8.6667,3.3833,293.92,56,69,1.44,NG,1731219239
300,Kayangel,8.0823,134.7173,302.34,74,14,3.77,PW,1731219241
301,Wamba,8.9333,8.6,294.84,42,100,0.07,NG,1731219243
302,Xinmin,41.9908,122.8253,287.49,26,100,6.23,CN,1731219245
303,Freetown,8.484,-13.2299,298.61,80,16,1.5,SL,1731219247
304,Woolgoolga,-30.1106,153.2007,298.08,87,95,4.27,AU,1731219249
305,Sola,-13.8833,167.55,300.11,76,23,8.11,VU,1731219252
306,Weno,7.4515,151.8468,304.12,79,75,1.54,FM,1731219254
307,Bozoum,6.3193,16.3799,294.85,60,96,0.33,CF,1731219256
308,Ola,59.5833,151.2833,258.93,68,9,3.46,RU,1731219258
309,Nogliki,51.8333,143.1667,274.82,83,99,4.44,RU,1731219135
310,Petropavlovsk-kamchatsky,53.0452,158.6483,270.48,54,40,3.0,RU,1731219263
311,Slobodskoy,58.7322,50.1772,270.79,81,92,4.32,RU,1731219176
312,Taro,-8.3862,115.28,299.28,80,87,0.51,ID,1731219267
313,Macau,22.2006,113.5461,300.21,78,40,6.69,MO,1731219269
314,Kourou,5.1552,-52.6478,299.05,86,8,3.21,GF,1731219271
315,Badger,64.8,-147.5333,257.59,86,0,2.57,US,1731219274
316,El alto,-4.2714,-81.2147,290.28,85,64,5.26,PE,1731219276
317,Nantucket,41.2835,-70.0995,281.56,52,0,2.73,US,1731219089
318,Port-cartier,50.0334,-66.8654,272.81,56,93,2.7,CA,1731219280
319,Singkil,-7.9855,111.4161,304.69,61,98,2.38,ID,1731219282
320,Bulungu,-4.55,18.6,293.62,97,100,0.29,CD,1731219188
321,Babolsar,36.7025,52.6576,288.19,71,0,2.31,IR,1731219286
322,Palangkaraya,-2.2,113.8333,304.66,70,93,0.41,ID,1731219291
323,Tabango,11.3077,124.373,300.93,79,100,4.59,PH,1731219293
324,Qalat,32.1058,66.9083,289.99,27,0,4.29,AF,1731219295
325,Reggane,26.7158,0.1714,296.14,24,96,3.65,DZ,1731219300
326,Dudinka,69.4058,86.1778,256.11,90,40,4.09,RU,1731219302
327,Divnogorsk,55.9594,92.3619,271.42,51,56,6.17,RU,1731219304
328,Chui,-33.6971,-53.4616,286.11,93,2,2.77,UY,1731219240
329,Tolanaro,-25.0319,46.9987,302.19,65,0,9.26,MG,1731219308
330,Sultandagi,38.5311,31.2281,279.97,51,79,1.9,TR,1731219311
331,Ialibu,-6.2821,143.9935,290.69,95,100,0.93,PG,1731219313
332,Yaren,-0.5472,166.916,301.22,64,18,3.3,NR,1731219315
333,Alesund,62.4723,6.1549,281.9,87,100,4.12,NO,1731219317
334,Sidi merouane,36.5206,6.2611,287.31,92,69,0.89,DZ,1731219319
335,Seven pagodas,12.6264,80.1722,302.89,60,41,7.89,IN,1731219321
336,Trinidad,-14.8333,-64.9,297.4,88,11,1.24,BO,1731219324
337,Sao joao da barra,-21.6403,-41.0511,294.19,90,100,5.23,BR,1731219326
338,Susaki,33.3667,133.2833,293.05,70,100,0.61,JP,1731219328
339,Inyonga,-6.7167,32.0667,299.0,45,32,3.41,TZ,1731219330
340,Gobindpur,22.6333,86.0667,302.86,45,0,2.66,IN,1731219332
341,Cockburn town,21.4612,-71.1419,300.8,81,88,4.42,TC,1731219335
342,Mata-utu,-13.2816,-176.1745,300.99,78,93,5.71,WF,1731219337
343,Newman,37.3138,-121.0208,286.05,47,58,1.34,US,1731219339
344,Sisimiut,66.9395,-53.6735,268.08,90,100,2.03,GL,1731219341
345,Westport,41.1415,-73.3579,276.69,65,0,0.0,US,1731219343
346,Flin flon,54.7682,-101.865,274.07,83,80,1.33,CA,1731219345
347,Shirdi,19.7667,74.4833,301.1,39,0,2.52,IN,1731219348
348,Berdigestyakh,62.0989,126.6992,262.45,96,99,2.21,RU,1731219350
349,Cromer,52.9312,1.2989,280.2,83,98,4.0,GB,1731219352
350,Qamdo,31.1667,97.2333,282.32,26,0,3.2,CN,1731219354
351,Tazacorte,28.629,-17.9293,294.69,40,0,1.03,ES,1731219356
352,Bamboo flat,11.7,92.7167,304.2,74,40,3.09,IN,1731219358
353,Barra de santo antonio,-9.4047,-35.5072,297.0,84,49,4.5,BR,1731219361
354,Saint johnsbury,44.4192,-72.0151,270.96,83,0,0.0,US,1731219363
355,Mili,6.0815,171.735,301.59,76,100,7.72,MH,1731219365
356,Eagle river,45.9172,-89.2443,280.27,93,100,1.54,US,1731219367
357,Kone,-21.0595,164.8658,299.75,51,16,2.91,NC,1731219369
358,Murzuq,25.9155,13.9184,288.1,41,1,0.05,LY,1731219371
359,Isangel,-19.55,169.2667,297.78,68,0,5.9,VU,1731219374
360,Gerash,27.6652,54.1371,295.23,26,0,1.97,IR,1731219376
361,Libenge,3.65,18.6333,294.6,97,100,0.58,CD,1731219378
362,Ust'-abakan,53.8525,91.3742,272.1,74,0,4.0,RU,1731219380
363,Tucuma,-0.1833,-50.05,299.17,80,9,3.67,BR,1731219382
364,La ronge,55.1001,-105.2842,273.29,74,75,1.03,CA,1731219384
365,Acajutla,13.5928,-89.8275,298.47,87,36,1.79,SV,1731219355
366,Yuzhno-sukhokumsk,44.6581,45.6436,281.54,58,1,1.89,RU,1731219389
367,Zhezqazghan,47.7833,67.7667,272.47,93,100,13.0,KZ,1731219391
368,Saint-pourcain-sur-sioule,46.3093,3.2879,283.21,94,100,1.12,FR,1731219393
369,Serdobsk,52.4586,44.2169,278.49,65,100,4.54,RU,1731219395
370,Kupino,54.3663,77.2981,272.35,96,100,8.38,RU,1731219397
371,Spirovo,57.419,34.9766,274.96,90,57,2.4,RU,1731219400
372,Hobyo,5.3505,48.5268,301.68,69,46,6.67,SO,1731219402
373,Naujoji akmene,56.3167,22.9,274.08,97,52,1.39,LT,1731219404
374,Atlantic,39.4668,-74.6663,280.87,64,0,0.0,US,1731219314
375,Sur,22.5667,59.5289,301.59,48,0,1.43,OM,1731219408
376,Igarka,67.4667,86.5833,263.87,90,100,6.59,RU,1731219410
377,Debre werk',10.6667,38.1667,288.32,55,0,1.69,ET,1731219413
378,Riyadh,24.6877,46.7219,296.98,38,19,1.01,SA,1731219415
379,Yarmouth,41.7057,-70.2286,280.35,63,0,2.57,US,1731219417
380,Tynda,55.1667,124.7167,266.87,65,38,5.94,RU,1731219419
381,Hohhot,40.8106,111.6522,287.31,44,0,2.0,CN,1731219422
382,Vanimo,-2.6741,141.3028,302.08,75,95,2.04,PG,1731219424
383,Tromso,69.6496,18.957,278.16,70,0,6.17,NO,1731219426
384,Tofol,5.3248,163.0078,305.03,66,75,4.63,FM,1731219428
385,Bahia de caraquez,-0.6,-80.4167,295.76,80,97,2.88,EC,1731219430
386,Oshakati,-17.7833,15.6833,297.05,45,71,3.42,NA,1731219432
387,Kirakira,-10.4544,161.9205,301.27,80,86,4.35,SB,1731219435
388,Hassi messaoud,31.6804,6.0729,286.07,62,0,1.54,DZ,1731219437
389,Kalmunai,7.4167,81.8167,302.61,71,72,6.01,LK,1731219439
390,Sajir,25.1825,44.5996,297.12,32,48,6.08,SA,1731219441
391,Ingeniero jacobacci,-41.3427,-69.5448,279.33,59,57,6.44,AR,1731219443
392,Vernon,50.2581,-119.2691,279.12,89,100,1.03,CA,1731219445
393,Glace bay,46.1969,-59.957,277.02,67,75,10.29,CA,1731219448
394,Thibodaux,29.7958,-90.8229,298.7,94,99,2.24,US,1731219450
395,Rio preto da eva,-2.6994,-59.6997,298.99,65,51,0.59,BR,1731219452
396,Siran,40.1894,39.1267,279.82,35,43,1.9,TR,1731219454
397,Novyy urgal,51.0736,132.5642,272.72,70,100,7.26,RU,1731219456
398,Ciudad constitucion,25.0369,-111.6644,290.6,60,0,1.86,MX,1731219459
399,Keflavik,64.0049,-22.5624,281.39,93,75,7.2,IS,1731219461
400,Tarlungeni,45.6333,25.75,273.7,86,20,0.94,RO,1731219463
401,Levuka,50.1834,-105.4011,272.99,83,70,1.24,CA,1731219465
402,Hadibu,12.65,54.0333,300.32,73,61,5.35,YE,1731219467
403,Konarka,19.9,86.1167,302.54,51,1,5.79,IN,1731219469
404,As sulayyil,20.4607,45.5779,297.18,37,0,3.61,SA,1731219472
405,Manacapuru,-3.2997,-60.6206,300.76,63,31,1.59,BR,1731219474
406,Tenterden,51.0685,0.6878,279.04,82,6,1.47,GB,1731219477
407,Kharp,66.8014,65.8081,259.38,86,92,7.03,RU,1731219479
408,Acapulco de juarez,16.8634,-99.8901,299.05,89,100,1.03,MX,1731219457
409,Feijo,-8.1642,-70.3536,294.27,96,88,0.96,BR,1731219483
410,Talpa de allende,20.3833,-104.8167,290.49,93,6,1.03,MX,1731219485
411,Poso,-1.3959,120.7524,304.84,57,28,2.27,ID,1731219487
412,Kerikeri,-35.2268,173.9474,292.36,72,86,3.25,NZ,1731219490
413,San matias,-16.3667,-58.4,297.59,81,10,2.11,BO,1731219492
414,Ulladulla,-35.35,150.4667,291.81,60,43,4.98,AU,1731219494
415,Kalevala,65.2,31.1667,273.29,72,26,3.58,RU,1731219496
416,Palu,-0.8917,119.8707,303.61,79,50,1.72,ID,1731219499
417,Zalingei,12.9096,23.4741,296.3,28,18,1.26,SD,1731219434
418,Port douglas,-16.4833,145.4667,300.43,66,54,4.31,AU,1731219503
419,Bayan,46.0833,127.4,281.75,38,53,7.46,CN,1731219505
420,Barbacoas,1.6715,-78.1398,296.6,92,96,0.65,CO,1731219507
421,Kuta,-8.7233,115.1723,305.12,79,40,4.12,ID,1731219509
422,Sultanah,24.4926,39.5857,301.4,24,0,5.14,SA,1731219287
423,Hiriyur,13.9456,76.6192,300.83,49,10,3.81,IN,1731219514
424,Scottsbluff,41.8666,-103.6672,281.64,85,100,3.6,US,1731219516
425,Qaisumah,28.3112,46.1273,296.13,35,0,1.03,SA,1731219518
426,Pozzallo,36.7305,14.8499,289.23,77,26,3.22,IT,1731219520
427,Ambikapur,23.1167,83.2,299.89,42,0,2.74,IN,1731219522
428,San mateo del mar,16.2,-95.0,300.1,76,60,9.7,MX,1731219525
429,Roma,43.2128,-75.4557,272.42,86,0,2.57,US,1731219527
430,Rongelap,11.1635,166.8941,301.44,80,62,9.21,MH,1731219529
431,Sinop,41.7711,34.8709,280.19,71,56,3.3,TR,1731219531
432,Mutuali,-14.8706,37.0044,301.8,51,0,2.14,MZ,1731219533
433,Malanje,-9.5402,16.341,292.05,97,100,1.82,AO,1731219536
434,Jayapura,-2.5333,140.7,304.81,71,51,2.5,ID,1731219538
435,Gornozavodsk,58.3758,58.3211,266.67,84,79,5.76,RU,1731219540
436,Beyneu,45.3167,55.2,280.9,67,8,5.21,KZ,1731219542
437,Portage la prairie,49.9728,-98.2926,279.2,71,97,1.6,CA,1731219544
438,Myeik,12.4333,98.6,303.88,59,99,0.47,MM,1731219497
439,Bodaybo,57.8506,114.1933,268.34,77,100,3.51,RU,1731219549
440,Malvan,16.0667,73.4667,303.93,45,12,1.06,IN,1731219551
441,Burutu,5.3509,5.5076,298.73,85,92,1.19,NG,1731219553
442,Dalai,45.5,124.3,282.6,28,5,7.03,CN,1731219555
443,Chibougamau,49.9168,-74.3659,271.94,80,0,5.14,CA,1731219557
444,Trincomalee,8.5711,81.2335,301.73,71,43,5.8,LK,1731219559
445,Mount pearl,47.5166,-52.7813,276.46,88,100,14.4,CA,1731219561
446,Pasuquin,18.3328,120.6177,305.12,70,40,4.63,PH,1731219566
447,Lodwar,3.1191,35.5973,304.03,41,18,7.72,KE,1731219569
448,Tuzha,57.6062,47.936,275.25,93,100,6.17,RU,1731219571
449,Trujillo,-8.116,-79.03,290.13,94,100,4.12,PE,1731219367
450,Tateyama,34.9833,139.8667,290.62,81,100,2.51,JP,1731219575
451,La paz,-16.5,-68.15,281.8,78,20,1.03,BO,1731219322
452,Saurimo,-9.6608,20.3916,291.9,97,97,1.68,AO,1731219580
453,Januaria,-15.4833,-44.3667,294.56,91,100,0.89,BR,1731219582
454,Alo,6.5486,4.2686,297.94,85,99,0.8,NG,1731219584
455,Qarazhal,48.0078,70.7903,272.16,89,99,13.5,KZ,1731219586
456,Voi,-3.3945,38.563,298.69,62,62,2.83,KE,1731219588
457,Lokomotivnyy,53.0118,60.5684,274.86,81,56,7.5,RU,1731219590
458,Port macquarie,-31.4333,152.9167,297.63,89,98,3.13,AU,1731219592
459,Bansang,13.4333,-14.65,294.89,29,2,1.18,GM,1731219595
460,Sihanoukville,10.6093,103.5296,306.12,58,40,2.06,KH,1731219364
461,Yar,58.249,52.1026,270.23,77,100,5.81,RU,1731219599
462,Nioki,-2.7167,17.6833,293.9,97,100,0.49,CD,1731219601
463,Tosham,28.8833,75.9167,303.25,30,0,2.02,IN,1731219603
464,Eksere,36.8134,31.9997,288.05,46,100,2.19,TR,1731219605
465,Ntchisi,-13.5278,33.9149,295.46,55,48,4.8,MW,1731219608
466,Fedorovka,53.6314,62.7078,273.88,87,66,6.51,KZ,1731219610
467,Chiredzi,-21.05,31.6667,303.37,39,95,1.69,ZW,1731219612
468,Port-vila,-17.7338,168.3219,299.93,65,40,5.14,VU,1731219616
469,Bonthe,7.5264,-12.505,298.08,85,70,1.21,SL,1731219619
470,Asau,46.4333,26.4,274.79,100,100,2.02,RO,1731219621
471,Oamaru,-45.0784,170.9801,286.14,81,100,5.54,NZ,1731219623
472,Chichen-itza,20.6667,-88.5667,295.97,99,91,0.96,MX,1731219625
473,Qa'en,33.7265,59.1844,286.35,41,2,1.3,IR,1731219627
474,Nadym,65.5333,72.5167,267.05,94,100,10.17,RU,1731219629
475,Amga,60.8953,131.9608,262.68,98,98,0.53,RU,1731219632
476,Pamandzi,-12.7967,45.2794,303.03,70,20,4.63,YT,1731219634
477,Chernyshevskiy,63.0128,112.4714,262.95,93,100,3.74,RU,1731219636
478,Villaviciosa,43.4813,-5.4357,288.79,96,100,1.96,ES,1731219638
479,Asind,25.7333,74.3333,304.6,18,0,2.97,IN,1731219640
480,Nova sintra,14.8667,-24.7167,299.63,73,60,5.19,CV,1731219643
481,La'ie,21.6477,-157.9253,297.65,85,27,3.13,US,1731219645
482,Bridgewater,44.3835,-64.5155,272.94,76,5,1.94,CA,1731219390
483,Heroica caborca,30.7167,-112.15,287.88,37,2,1.22,MX,1731219649
484,Labytnangi,66.6572,66.4183,262.12,78,100,7.39,RU,1731219651
485,Grand falls-windsor,48.9332,-55.6649,271.74,91,100,7.65,CA,1731219653
486,Luderitz,-26.6481,15.1594,288.98,79,71,5.71,NA,1731219656
487,Kapit,2.0167,112.9333,306.88,50,71,1.36,MY,1731219658
488,Lubao,14.9167,120.55,306.99,56,54,3.15,PH,1731219660
489,Georgetown,5.4112,100.3354,304.12,70,20,3.09,MY,1731219662
490,Axim,4.8699,-2.2405,298.07,87,83,0.65,GH,1731219664
491,Nakasongola,1.3089,32.4564,296.11,65,100,0.61,UG,1731219667
492,Dhidhdhoo,6.8833,73.1,301.49,67,22,1.55,MV,1731219669
493,Nizhneangarsk,55.7833,109.55,267.76,66,99,2.49,RU,1731219671
494,Monywa,22.1167,95.1333,298.29,76,96,3.56,MM,1731219673
495,Selfoss,63.9331,-20.9971,281.51,87,76,7.88,IS,1731219675
496,Okhotsk,59.3833,143.3,261.42,70,100,4.06,RU,1731219677
497,Northam,51.0333,-4.2167,285.16,94,100,3.35,GB,1731219680
498,Aliabad,41.4822,46.6353,283.94,62,4,1.03,AZ,1731219682
499,Dunedin,-45.8742,170.5036,285.82,84,100,2.68,NZ,1731219684
500,Usogorsk,63.4106,48.6872,267.8,95,74,2.82,RU,1731219686
501,Saint-philippe,-21.3585,55.7679,298.69,74,23,5.66,RE,1731219688
502,Copala,16.65,-98.9833,298.22,87,61,1.47,MX,1731219691
503,Isola di capo rizzuto,38.96,17.0933,287.93,78,4,5.78,IT,1731219693
504,Arraial do cabo,-22.9661,-42.0278,295.4,80,73,6.44,BR,1731219450
505,Melfort,52.8667,-104.6177,277.22,70,100,2.57,CA,1731219697
506,Deyang,31.1302,104.382,289.06,75,98,1.51,CN,1731219424
507,Shakargarh,32.2623,75.1668,300.73,36,0,1.54,PK,1731219702
508,Kupang,-10.1667,123.5833,307.47,59,40,5.14,ID,1731219704
509,Vilyuysk,63.7553,121.6247,265.09,92,100,3.47,RU,1731219706
510,Mitu,1.1983,-70.1733,295.5,98,100,0.97,CO,1731219708
511,Port hueneme,34.1478,-119.1951,287.57,54,0,3.6,US,1731219710
512,Tabas,33.5959,56.9244,291.59,33,58,1.66,IR,1731219713
513,Betare oya,5.6,14.0833,293.2,65,84,0.3,CM,1731219715
514,Basoko,1.2391,23.616,294.67,94,100,1.61,CD,1731219718
515,Trondheim,63.4305,10.3951,274.18,81,18,1.21,NO,1731219691
516,Fort st. john,56.2499,-120.8529,272.09,69,20,6.69,CA,1731219581
517,Shiguai,40.7058,110.2856,283.59,44,6,3.72,CN,1731219733
518,Namdrik,5.5994,168.1028,300.97,79,100,10.1,MH,1731219736
519,Oskarshamn,57.2645,16.4484,279.81,83,100,2.24,SE,1731219738
520,Daokou,35.5639,114.5058,293.98,40,25,1.85,CN,1731219740
521,Montes claros,-16.735,-43.8617,295.04,85,91,1.7,BR,1731219742
522,Hirna,9.2167,41.1,292.78,55,73,1.54,ET,1731219745
523,Harper,4.375,-7.7169,298.44,86,98,2.18,LR,1731219747
524,Karratha,-20.7377,116.8463,308.56,27,50,8.09,AU,1731219749
525,Hilo,19.7297,-155.09,296.0,90,100,2.06,US,1731219752
526,Vilani,56.5525,26.9245,279.82,76,100,1.5,LV,1731219754
527,Sitka,57.0531,-135.33,281.09,66,100,7.2,US,1731219480
528,El porvenir,13.7617,-87.3458,294.26,93,39,2.42,HN,1731219758
529,Gharo,24.7424,67.5856,304.94,38,0,5.31,PK,1731219760
530,Bengkulu,-3.8004,102.2655,302.77,69,81,3.56,ID,1731219762
531,Chinde,26.8212,87.7095,299.74,52,9,2.58,NP,1731219765
532,Estremoz,38.8443,-7.5859,285.0,68,89,1.67,PT,1731219767
533,Qusar,41.4273,48.4289,282.18,38,0,1.12,AZ,1731219769
534,Prince rupert,54.3161,-130.3201,279.98,65,100,7.72,CA,1731219771
535,Syktyvkar,61.6764,50.8099,270.0,93,0,3.0,RU,1731219773
536,Autazes,-3.5797,-59.1306,301.33,53,69,1.19,BR,1731219776
537,Ciudad lazaro cardenas,17.9583,-102.2,298.28,89,27,1.86,MX,1731219778
538,Sandnessjoen,66.0217,12.6316,280.79,64,85,4.78,NO,1731219780
539,Namibe,-15.1961,12.1522,294.28,71,51,1.96,AO,1731219782
540,Kavaratti,10.5669,72.642,301.23,71,35,2.12,IN,1731219784
541,Mount isa,-20.7333,139.5,313.02,12,20,3.6,AU,1731219786
542,Cururupu,-1.8283,-44.8683,298.44,82,51,1.79,BR,1731219789
543,Monte alegre de minas,-18.8706,-48.8808,293.84,89,35,0.95,BR,1731219791
544,Kijang,35.2442,129.2139,290.0,62,100,1.6,KR,1731219793
545,Kismayo,-0.3582,42.5454,302.04,67,47,3.74,SO,1731219795
546,Mersing,2.4312,103.8405,304.1,74,40,3.6,MY,1731219797
547,Boguchany,58.3814,97.4531,270.69,75,49,3.92,RU,1731219799
548,Inhambane,-23.865,35.3833,300.15,65,52,3.26,MZ,1731219802
549,Salekhard,66.53,66.6019,263.04,78,100,8.64,RU,1731219723
550,Arauco,-37.2463,-73.3175,281.93,86,100,2.1,CL,1731219806
551,Demidov,55.2706,31.515,278.09,90,100,1.78,RU,1731219808
552,Katabu,-4.9333,122.5167,301.96,74,90,1.75,ID,1731219810
553,Macas,-2.3167,-78.1167,292.54,97,100,1.06,EC,1731219813
554,Bellefonte,40.9134,-77.7783,278.1,67,82,0.0,US,1731219815
555,Tsiombe,-25.3,45.4833,305.22,45,12,1.63,MG,1731219817
556,Sunrise manor,36.2111,-115.0731,285.7,29,0,2.57,US,1731219819
557,Dyurtyuli,55.4911,54.8688,274.87,98,100,7.79,RU,1731219821
558,Highfields,-27.4518,151.9463,300.75,53,100,1.92,AU,1731219824
559,Nabire,-3.3667,135.4833,303.97,60,53,2.89,ID,1731219826
560,Ulanhot,46.0833,122.0833,281.28,19,0,7.03,CN,1731219828
561,Santiago papasquiaro,25.046,-105.4208,286.91,59,0,1.74,MX,1731219830
562,Chongqing,29.5628,106.5528,296.61,62,0,2.0,CN,1731219832
563,Mbandaka,0.0487,18.2603,293.6,96,100,0.76,CD,1731219837
564,Kadugli,11.0167,29.7167,300.53,25,13,5.39,SD,1731219839
565,Sake,-1.5736,29.045,293.36,84,100,0.17,CD,1731219841
566,Pimentel,-6.8367,-79.9342,290.31,88,0,2.57,PE,1731219843
567,Susuman,62.7833,148.1667,240.2,99,76,0.14,RU,1731219845
568,Illizi,26.4833,8.4667,290.27,36,9,1.18,DZ,1731219847
569,Neiva,2.9273,-75.2819,295.06,92,88,1.74,CO,1731219743
570,Coello,4.2891,-74.8982,295.75,97,99,0.32,CO,1731219852
571,Lafollette,36.3829,-84.1199,290.55,86,100,1.78,US,1731219854
572,Singapore,1.2897,103.8501,305.12,60,75,3.09,SG,1731219301
573,Howard springs,-12.497,131.047,306.97,54,58,5.19,AU,1731219858
574,Changtu,42.7788,124.0955,284.97,37,100,5.99,CN,1731219861
575,Altamira,-3.2033,-52.2064,295.82,52,9,1.0,BR,1731219863
576,Petukhovo,55.0692,67.9019,273.81,97,100,7.74,RU,1731219867
577,Pugachev,52.0133,48.8025,277.74,78,97,4.52,RU,1731219869
578,Severo-yeniseyskiy,60.3725,93.0408,264.95,83,97,5.35,RU,1731219871
579,Moranbah,-22.0016,148.0466,310.33,23,0,8.1,AU,1731219874
580,Siwana,25.6333,72.4167,304.66,20,0,1.23,IN,1731219876
581,Sao tome,0.3365,6.7273,298.22,88,100,3.59,ST,1731219878
582,Pont rouge,48.8833,-72.0825,274.05,63,28,4.21,CA,1731219880
583,Colonia,50.9333,6.95,281.55,92,43,1.41,DE,1731219778
584,Paita,-5.0892,-81.1144,290.61,87,69,4.16,PE,1731219884
585,Swift current,50.2834,-107.8014,274.6,100,20,1.54,CA,1731219887
586,Yunak,38.8142,31.7322,277.19,54,83,1.55,TR,1731219889
587,Rovinj,45.08,13.64,285.49,64,29,1.74,HR,1731219891
588,Kailua-kona,19.6406,-155.9956,297.35,90,22,0.73,US,1731219893
589,Tukrah,32.5341,20.5791,290.47,79,39,1.28,LY,1731219895
590,Talata mafara,12.5732,6.0597,292.03,29,82,4.28,NG,1731219897
591,Guerrero negro,27.9769,-114.0611,289.7,64,0,3.18,MX,1731219900
592,Ha tinh,18.3333,105.9,300.04,56,5,2.6,VN,1731219902
593,Yamada,39.4667,141.95,287.27,63,1,2.85,JP,1731219904
594,Haiku-pauwela,20.9219,-156.3051,297.06,79,0,6.71,US,1731219906
595,Lyubinskiy,55.1542,72.6925,273.41,98,100,7.44,RU,1731219909
596,Carutapera,-1.195,-46.02,298.8,84,29,3.28,BR,1731219911
597,Mordovo,52.0834,40.77,277.22,94,94,2.59,RU,1731219913
598,Aylmer,42.7668,-80.983,278.43,51,100,3.17,CA,1731219915
599,Uyuni,-20.4597,-66.825,283.28,43,6,2.65,BO,1731219917
